[{"zip":"95973","city":"Chico","state":"CA","country":"United States","count":1,"lat":39.8642,"lng":-121.8697,"platform":"ebay"},{"zip":"33598","city":"Wimauma","state":"FL","country":"United States","count":1,"lat":27.7013,"lng":-82.3,"platform":"ebay"},{"zip":"32806","city":"Orlando","state":"FL","country":"United States","count":2,"lat":28.5117,"lng":-81.3582,"platform":"ebay"},{"zip":"91761","city":"Ontario","state":"CA","country":"United States","count":1,"lat":34.0267,"lng":-117.5875,"platform":"ebay"},{"zip":"77320","city":"Huntsville","state":"TX","country":"United States","count":1,"lat":30.8061,"lng":-95.5781,"platform":"ebay"},{"zip":"96251","city":"Apo","state":"AP","country":"United States","count":1,"lat":0.0,"lng":0.0,"platform":"ebay"},{"zip":"93301","city":"Bakersfield","state":"CA","country":"United States","count":1,"lat":35.3879,"lng":-119.0236,"platform":"ebay"},{"zip":"43614","city":"Toledo","state":"OH","country":"United States","count":1,"lat":41.6018,"lng":-83.6338,"platform":"ebay"},{"zip":"46131","city":"Franklin","state":"IN","country":"United States","count":1,"lat":39.4828,"lng":-86.0578,"platform":"ebay"},{"zip":"99352","city":"Richland","state":"WA","country":"United States","count":1,"lat":46.2497,"lng":-119.3025,"platform":"ebay"},{"zip":"84107","city":"Millcreek","state":"UT","country":"United States","count":1,"lat":40.6566,"lng":-111.8847,"platform":"ebay"},{"zip":"14813","city":"Belmont","state":"NY","country":"United States","count":1,"lat":42.241,"lng":-77.9761,"platform":"ebay"},{"zip":"97251","city":"Portland","state":"OR","country":"United States","count":1,"lat":45.5239,"lng":-122.6751,"platform":"ebay"},{"zip":"10013","city":"New York","state":"NY","country":"United States","count":1,"lat":40.7209,"lng":-74.0089,"platform":"ebay"},{"zip":"51503","city":"Council Bluffs","state":"IA","country":"United States","count":2,"lat":41.2463,"lng":-95.7721,"platform":"ebay"},{"zip":"93611","city":"Clovis","state":"CA","country":"United States","count":1,"lat":36.8261,"lng":-119.6789,"platform":"ebay"},{"zip":"02135","city":"Brighton","state":"MA","country":"United States","count":1,"lat":42.3488,"lng":-71.1551,"platform":"ebay"},{"zip":"91406","city":"Van Nuys","state":"CA","country":"United States","count":1,"lat":34.1961,"lng":-118.4924,"platform":"ebay"},{"zip":"97303","city":"Keizer","state":"OR","country":"United States","count":1,"lat":45.0261,"lng":-123.0175,"platform":"ebay"},{"zip":"92701","city":"Santa Ana","state":"CA","country":"United States","count":1,"lat":33.7468,"lng":-117.8554,"platform":"ebay"},{"zip":"15226","city":"Pittsburgh","state":"PA","country":"United States","count":1,"lat":40.3995,"lng":-80.0159,"platform":"ebay"},{"zip":"07110","city":"Nutley","state":"NJ","country":"United States","count":1,"lat":40.8216,"lng":-74.1567,"platform":"ebay"},{"zip":"01069","city":"Palmer","state":"MA","country":"United States","count":1,"lat":42.1921,"lng":-72.3077,"platform":"ebay"},{"zip":"73064","city":"Mustang","state":"OK","country":"United States","count":1,"lat":35.3779,"lng":-97.7511,"platform":"ebay"},{"zip":"96789","city":"Mililani","state":"HI","country":"United States","count":1,"lat":21.4516,"lng":-157.9529,"platform":"ebay"},{"zip":"75052","city":"Grand Prairie","state":"TX","country":"United States","count":1,"lat":32.6589,"lng":-97.0119,"platform":"ebay"},{"zip":"16680","city":"Smithmill","state":"PA","country":"United States","count":1,"lat":40.7586,"lng":-78.3989,"platform":"ebay"},{"zip":"60630","city":"Chicago","state":"IL","country":"United States","count":1,"lat":41.9741,"lng":-87.7578,"platform":"ebay"},{"zip":"20876","city":"Germantown","state":"MD","country":"United States","count":3,"lat":39.209,"lng":-77.2372,"platform":"ebay"},{"zip":"45344","city":"New Carlisle","state":"OH","country":"United States","count":1,"lat":39.9566,"lng":-83.9987,"platform":"ebay"},{"zip":"85705","city":"Tucson","state":"AZ","country":"United States","count":1,"lat":32.2694,"lng":-111.004,"platform":"ebay"},{"zip":"77095","city":"Houston","state":"TX","country":"United States","count":1,"lat":29.9145,"lng":-95.6531,"platform":"ebay"},{"zip":"08628","city":"Ewing","state":"NJ","country":"United States","count":1,"lat":40.2645,"lng":-74.8182,"platform":"ebay"},{"zip":"80904","city":"Colorado Springs","state":"CO","country":"United States","count":1,"lat":38.8611,"lng":-104.8715,"platform":"ebay"},{"zip":"92324","city":"Colton","state":"CA","country":"United States","count":1,"lat":34.0266,"lng":-117.2653,"platform":"ebay"},{"zip":"92804","city":"Anaheim","state":"CA","country":"United States","count":1,"lat":33.8104,"lng":-117.9794,"platform":"ebay"},{"zip":"89123","city":"Las Vegas","state":"NV","country":"United States","count":1,"lat":36.0354,"lng":-115.1495,"platform":"ebay"},{"zip":"01862","city":"North Billerica","state":"MA","country":"United States","count":1,"lat":42.5683,"lng":-71.2923,"platform":"ebay"},{"zip":"02554","city":"Nantucket","state":"MA","country":"United States","count":1,"lat":41.3157,"lng":-70.1197,"platform":"ebay"},{"zip":"10303","city":"Staten Island","state":"NY","country":"United States","count":1,"lat":40.6326,"lng":-74.1682,"platform":"ebay"},{"zip":"56511","city":"Audubon","state":"MN","country":"United States","count":1,"lat":46.8477,"lng":-96.0141,"platform":"ebay"},{"zip":"29576","city":"Murrells Inlet","state":"SC","country":"United States","count":1,"lat":33.563,"lng":-79.0543,"platform":"ebay"},{"zip":"04055","city":"Naples","state":"ME","country":"United States","count":1,"lat":43.9715,"lng":-70.6259,"platform":"ebay"},{"zip":"37027","city":"Brentwood","state":"TN","country":"United States","count":1,"lat":36.0016,"lng":-86.7807,"platform":"ebay"},{"zip":"02893","city":"West Warwick","state":"RI","country":"United States","count":1,"lat":41.6973,"lng":-71.5097,"platform":"ebay"},{"zip":"89031","city":"North Las Vegas","state":"NV","country":"United States","count":1,"lat":36.2578,"lng":-115.1667,"platform":"ebay"},{"zip":"60120","city":"Elgin","state":"IL","country":"United States","count":1,"lat":42.0163,"lng":-88.2346,"platform":"ebay"},{"zip":"00614","city":"Arecibo","state":"","country":"Puerto Rico","count":1,"lat":18.4744,"lng":-66.7163,"platform":"ebay"},{"zip":"09114","city":"Apo","state":"AE","country":"United States","count":1,"lat":0.0,"lng":0.0,"platform":"ebay"},{"zip":"33198","city":"Miami","state":"FL","country":"United States","count":1,"lat":25.8101,"lng":-80.3335,"platform":"ebay"},{"zip":"75965","city":"Nacogdoches","state":"TX","country":"United States","count":1,"lat":31.73,"lng":-94.5992,"platform":"ebay"},{"zip":"94107","city":"San Francisco","state":"CA","country":"United States","count":1,"lat":37.7679,"lng":-122.3929,"platform":"ebay"},{"zip":"33702","city":"St Petersburg","state":"FL","country":"United States","count":1,"lat":27.8526,"lng":-82.6316,"platform":"ebay"},{"zip":"92705","city":"Santa Ana","state":"CA","country":"United States","count":1,"lat":33.744,"lng":-117.8148,"platform":"ebay"},{"zip":"85004","city":"Phoenix","state":"AZ","country":"United States","count":1,"lat":33.4506,"lng":-112.0694,"platform":"ebay"},{"zip":"19703","city":"Claymont","state":"DE","country":"United States","count":1,"lat":39.7958,"lng":-75.4454,"platform":"ebay"},{"zip":"91326","city":"Porter Ranch","state":"CA","country":"United States","count":1,"lat":34.2808,"lng":-118.5573,"platform":"ebay"},{"zip":"93908","city":"Salinas","state":"CA","country":"United States","count":1,"lat":36.6418,"lng":-121.5869,"platform":"ebay"},{"zip":"99577","city":"Eagle River","state":"AK","country":"United States","count":1,"lat":61.2353,"lng":-149.3206,"platform":"ebay"},{"zip":"01020","city":"Chicopee","state":"MA","country":"United States","count":1,"lat":42.1776,"lng":-72.5626,"platform":"ebay"},{"zip":"79928","city":"Horizon City","state":"TX","country":"United States","count":1,"lat":31.6609,"lng":-106.1393,"platform":"ebay"},{"zip":"89074","city":"Henderson","state":"NV","country":"United States","count":1,"lat":36.0313,"lng":-115.0739,"platform":"ebay"},{"zip":"91723","city":"Covina","state":"CA","country":"United States","count":1,"lat":34.0847,"lng":-117.888,"platform":"ebay"},{"zip":"14261","city":"Amherst","state":"NY","country":"United States","count":1,"lat":42.8866,"lng":-78.8789,"platform":"ebay"},{"zip":"55016","city":"Cottage Grove","state":"MN","country":"United States","count":1,"lat":44.8144,"lng":-92.9262,"platform":"ebay"},{"zip":"83686","city":"Nampa","state":"ID","country":"United States","count":1,"lat":43.4782,"lng":-116.6034,"platform":"ebay"},{"zip":"62522","city":"Decatur","state":"IL","country":"United States","count":1,"lat":39.8225,"lng":-89.049,"platform":"ebay"},{"zip":"04628","city":"Dennysville","state":"ME","country":"United States","count":1,"lat":44.8665,"lng":-67.2808,"platform":"ebay"},{"zip":"91030","city":"South Pasadena","state":"CA","country":"United States","count":1,"lat":34.113,"lng":-118.1565,"platform":"ebay"},{"zip":"36117","city":"Montgomery","state":"AL","country":"United States","count":1,"lat":32.3725,"lng":-86.1339,"platform":"ebay"},{"zip":"44122","city":"Beachwood","state":"OH","country":"United States","count":1,"lat":41.4795,"lng":-81.5119,"platform":"ebay"},{"zip":"40121","city":"Fort Knox","state":"KY","country":"United States","count":1,"lat":37.87,"lng":-85.9326,"platform":"ebay"},{"zip":"16803","city":"State College","state":"PA","country":"United States","count":1,"lat":40.8056,"lng":-77.9025,"platform":"ebay"},{"zip":"76259","city":"Ponder","state":"TX","country":"United States","count":1,"lat":33.2056,"lng":-97.2927,"platform":"ebay"},{"zip":"77459","city":"Missouri City","state":"TX","country":"United States","count":1,"lat":29.5287,"lng":-95.5292,"platform":"ebay"},{"zip":"91911","city":"Chula Vista","state":"CA","country":"United States","count":1,"lat":32.607,"lng":-117.0503,"platform":"ebay"},{"zip":"12550","city":"Newburgh","state":"NY","country":"United States","count":1,"lat":41.5379,"lng":-74.0424,"platform":"ebay"},{"zip":"78363","city":"Kingsville","state":"TX","country":"United States","count":1,"lat":27.4551,"lng":-97.6923,"platform":"ebay"},{"zip":"78660","city":"Pflugerville","state":"TX","country":"United States","count":1,"lat":30.441,"lng":-97.5979,"platform":"ebay"},{"zip":"77024","city":"Houston","state":"TX","country":"United States","count":1,"lat":29.7638,"lng":-95.5005,"platform":"ebay"},{"zip":"90262","city":"Lynwood","state":"CA","country":"United States","count":1,"lat":33.9253,"lng":-118.2031,"platform":"ebay"},{"zip":"20155","city":"Gainesville","state":"VA","country":"United States","count":1,"lat":38.8133,"lng":-77.6339,"platform":"ebay"},{"zip":"53042","city":"Kiel","state":"WI","country":"United States","count":1,"lat":43.9691,"lng":-87.96,"platform":"ebay"},{"zip":"66018","city":"De Soto","state":"KS","country":"United States","count":1,"lat":38.9436,"lng":-94.9714,"platform":"ebay"},{"zip":"75089","city":"Rowlett","state":"TX","country":"United States","count":1,"lat":32.9352,"lng":-96.5508,"platform":"ebay"},{"zip":"85132","city":"Florence","state":"AZ","country":"United States","count":2,"lat":32.9852,"lng":-111.2979,"platform":"ebay"},{"zip":"97124","city":"Hillsboro","state":"OR","country":"United States","count":1,"lat":45.5905,"lng":-122.9561,"platform":"ebay"},{"zip":"95125","city":"San Jose","state":"CA","country":"United States","count":1,"lat":37.2972,"lng":-121.8951,"platform":"ebay"},{"zip":"01128","city":"Springfield","state":"MA","country":"United States","count":1,"lat":42.0958,"lng":-72.4856,"platform":"ebay"},{"zip":"75074","city":"Plano","state":"TX","country":"United States","count":1,"lat":33.0388,"lng":-96.6709,"platform":"ebay"},{"zip":"97355","city":"Lebanon","state":"OR","country":"United States","count":1,"lat":44.5128,"lng":-122.7863,"platform":"ebay"},{"zip":"48760","city":"Silverwood","state":"MI","country":"United States","count":1,"lat":43.2952,"lng":-83.2602,"platform":"ebay"},{"zip":"06037","city":"Berlin","state":"CT","country":"United States","count":1,"lat":41.6034,"lng":-72.7761,"platform":"ebay"},{"zip":"07024","city":"Fort Lee","state":"NJ","country":"United States","count":2,"lat":40.8485,"lng":-73.9697,"platform":"ebay"},{"zip":"18643","city":"Exeter","state":"PA","country":"United States","count":1,"lat":41.3679,"lng":-75.8397,"platform":"ebay"},{"zip":"01864","city":"North Reading","state":"MA","country":"United States","count":1,"lat":42.5805,"lng":-71.087,"platform":"ebay"},{"zip":"92011","city":"Carlsbad","state":"CA","country":"United States","count":1,"lat":33.1086,"lng":-117.299,"platform":"ebay"},{"zip":"86301","city":"Prescott","state":"AZ","country":"United States","count":1,"lat":34.6193,"lng":-112.4194,"platform":"ebay"},{"zip":"60139","city":"Glendale Heights","state":"IL","country":"United States","count":13,"lat":41.9195,"lng":-88.0746,"platform":"ebay"},{"zip":"47403","city":"Bloomington","state":"IN","country":"United States","count":1,"lat":39.079,"lng":-86.6071,"platform":"ebay"},{"zip":"14586","city":"West Henrietta","state":"NY","country":"United States","count":1,"lat":43.0464,"lng":-77.6893,"platform":"ebay"},{"zip":"72364","city":"Marion","state":"AR","country":"United States","count":1,"lat":35.2184,"lng":-90.1832,"platform":"ebay"},{"zip":"30161","city":"Rome","state":"GA","country":"United States","count":1,"lat":34.2662,"lng":-85.2215,"platform":"ebay"},{"zip":"92377","city":"Rialto","state":"CA","country":"United States","count":1,"lat":34.1608,"lng":-117.3927,"platform":"ebay"},{"zip":"90002","city":"Los Angeles","state":"CA","country":"United States","count":1,"lat":33.949,"lng":-118.246,"platform":"ebay"},{"zip":"17268","city":"Waynesboro","state":"PA","country":"United States","count":2,"lat":39.7972,"lng":-77.5924,"platform":"ebay"},{"zip":"06810","city":"Danbury","state":"CT","country":"United States","count":2,"lat":41.3787,"lng":-73.4721,"platform":"ebay"},{"zip":"85298","city":"Gilbert","state":"AZ","country":"United States","count":1,"lat":33.2419,"lng":-111.7291,"platform":"ebay"},{"zip":"14482","city":"Le Roy","state":"NY","country":"United States","count":1,"lat":42.9699,"lng":-77.9714,"platform":"ebay"},{"zip":"78577","city":"Pharr","state":"TX","country":"United States","count":1,"lat":26.1524,"lng":-98.2097,"platform":"ebay"},{"zip":"85212","city":"Mesa","state":"AZ","country":"United States","count":1,"lat":33.328,"lng":-111.6356,"platform":"ebay"},{"zip":"76137","city":"Fort Worth","state":"TX","country":"United States","count":1,"lat":32.8521,"lng":-97.2881,"platform":"ebay"},{"zip":"95407","city":"Santa Rosa","state":"CA","country":"United States","count":1,"lat":38.3917,"lng":-122.7511,"platform":"ebay"},{"zip":"95670","city":"Rancho Cordova","state":"CA","country":"United States","count":1,"lat":38.6048,"lng":-121.2692,"platform":"ebay"},{"zip":"18013","city":"Bangor","state":"PA","country":"United States","count":1,"lat":40.8621,"lng":-75.1623,"platform":"ebay"},{"zip":"12477","city":"Saugerties","state":"NY","country":"United States","count":1,"lat":42.0841,"lng":-73.9996,"platform":"ebay"},{"zip":"29229","city":"Columbia","state":"SC","country":"United States","count":2,"lat":34.135,"lng":-80.8873,"platform":"ebay"},{"zip":"99354","city":"Richland","state":"WA","country":"United States","count":1,"lat":46.3686,"lng":-119.3334,"platform":"ebay"},{"zip":"35769","city":"Scottsboro","state":"AL","country":"United States","count":1,"lat":34.5743,"lng":-86.1006,"platform":"ebay"},{"zip":"92025","city":"Escondido","state":"CA","country":"United States","count":1,"lat":33.0902,"lng":-117.0072,"platform":"ebay"},{"zip":"98908","city":"Yakima","state":"WA","country":"United States","count":2,"lat":46.6298,"lng":-120.7053,"platform":"ebay"},{"zip":"02021","city":"Canton","state":"MA","country":"United States","count":1,"lat":42.1827,"lng":-71.1221,"platform":"ebay"},{"zip":"78065","city":"Poteet","state":"TX","country":"United States","count":1,"lat":29.0758,"lng":-98.6499,"platform":"ebay"},{"zip":"89139","city":"Las Vegas","state":"NV","country":"United States","count":1,"lat":36.0335,"lng":-115.2121,"platform":"ebay"},{"zip":"18966","city":"Southampton","state":"PA","country":"United States","count":1,"lat":40.1873,"lng":-75.0057,"platform":"ebay"},{"zip":"98027","city":"Issaquah","state":"WA","country":"United States","count":1,"lat":47.4964,"lng":-121.9909,"platform":"ebay"},{"zip":"04473","city":"Orono","state":"ME","country":"United States","count":1,"lat":44.8827,"lng":-68.716,"platform":"ebay"},{"zip":"12203","city":"Albany","state":"NY","country":"United States","count":1,"lat":42.6847,"lng":-73.8317,"platform":"ebay"},{"zip":"19977","city":"Smyrna","state":"DE","country":"United States","count":1,"lat":39.2629,"lng":-75.5399,"platform":"ebay"},{"zip":"78557","city":"Hidalgo","state":"TX","country":"United States","count":1,"lat":26.1134,"lng":-98.2552,"platform":"ebay"},{"zip":"07866","city":"Rockaway","state":"NJ","country":"United States","count":1,"lat":40.9577,"lng":-74.4919,"platform":"ebay"},{"zip":"73069","city":"Norman","state":"OK","country":"United States","count":1,"lat":35.2485,"lng":-97.459,"platform":"ebay"},{"zip":"19543","city":"Morgantown","state":"PA","country":"United States","count":1,"lat":40.1715,"lng":-75.8969,"platform":"ebay"},{"zip":"55426","city":"Minneapolis","state":"MN","country":"United States","count":1,"lat":44.9526,"lng":-93.3847,"platform":"ebay"},{"zip":"91320","city":"Newbury Park","state":"CA","country":"United States","count":1,"lat":34.1425,"lng":-118.9762,"platform":"ebay"},{"zip":"89178","city":"Las Vegas","state":"NV","country":"United States","count":1,"lat":36.026,"lng":-115.2801,"platform":"ebay"},{"zip":"33525","city":"Dade City","state":"FL","country":"United States","count":1,"lat":28.346,"lng":-82.2365,"platform":"ebay"},{"zip":"53574","city":"New Glarus","state":"WI","country":"United States","count":1,"lat":42.8209,"lng":-89.6544,"platform":"ebay"},{"zip":"33166","city":"Doral","state":"FL","country":"United States","count":2,"lat":25.8358,"lng":-80.3013,"platform":"ebay"},{"zip":"44035","city":"Elyria","state":"OH","country":"United States","count":1,"lat":41.3692,"lng":-82.1261,"platform":"ebay"},{"zip":"10473","city":"Bronx","state":"NY","country":"United States","count":1,"lat":40.8165,"lng":-73.8622,"platform":"ebay"},{"zip":"75068","city":"Little Elm","state":"TX","country":"United States","count":1,"lat":33.174,"lng":-96.9501,"platform":"ebay"},{"zip":"61704","city":"Bloomington","state":"IL","country":"United States","count":1,"lat":40.4657,"lng":-88.9792,"platform":"ebay"},{"zip":"90068","city":"Los Angeles","state":"CA","country":"United States","count":1,"lat":34.1299,"lng":-118.3355,"platform":"ebay"},{"zip":"48187","city":"Canton","state":"MI","country":"United States","count":1,"lat":42.3291,"lng":-83.4879,"platform":"ebay"},{"zip":"45324","city":"Fairborn","state":"OH","country":"United States","count":1,"lat":39.8221,"lng":-84.0099,"platform":"ebay"},{"zip":"84096","city":"Herriman","state":"UT","country":"United States","count":1,"lat":40.4892,"lng":-112.0507,"platform":"ebay"},{"zip":"77067","city":"Houston","state":"TX","country":"United States","count":1,"lat":29.9519,"lng":-95.4475,"platform":"ebay"},{"zip":"70130","city":"New Orleans","state":"LA","country":"United States","count":1,"lat":29.9388,"lng":-90.0724,"platform":"ebay"},{"zip":"54893","city":"Webster","state":"WI","country":"United States","count":1,"lat":45.8592,"lng":-92.2959,"platform":"ebay"},{"zip":"39042","city":"Brandon","state":"MS","country":"United States","count":1,"lat":32.2203,"lng":-89.8623,"platform":"ebay"},{"zip":"84087","city":"Woods Cross","state":"UT","country":"United States","count":1,"lat":40.8914,"lng":-111.9314,"platform":"ebay"},{"zip":"68901","city":"Hastings","state":"NE","country":"United States","count":1,"lat":40.5895,"lng":-98.3876,"platform":"ebay"},{"zip":"38002","city":"Arlington","state":"TN","country":"United States","count":1,"lat":35.2922,"lng":-89.7199,"platform":"ebay"},{"zip":"33431","city":"Boca Raton","state":"FL","country":"United States","count":2,"lat":26.3781,"lng":-80.102,"platform":"ebay"},{"zip":"85236","city":"Higley","state":"AZ","country":"United States","count":1,"lat":33.3339,"lng":-111.7028,"platform":"ebay"},{"zip":"43035","city":"Lewis Center","state":"OH","country":"United States","count":1,"lat":40.1884,"lng":-82.9961,"platform":"ebay"},{"zip":"33594","city":"Valrico","state":"FL","country":"United States","count":1,"lat":27.9377,"lng":-82.2445,"platform":"ebay"},{"zip":"15227","city":"Pittsburgh","state":"PA","country":"United States","count":1,"lat":40.3779,"lng":-79.973,"platform":"ebay"},{"zip":"83646","city":"Meridian","state":"ID","country":"United States","count":1,"lat":43.6521,"lng":-116.4263,"platform":"ebay"},{"zip":"80012","city":"Aurora","state":"CO","country":"United States","count":1,"lat":39.7038,"lng":-104.8379,"platform":"ebay"},{"zip":"32444","city":"Lynn Haven","state":"FL","country":"United States","count":1,"lat":30.2306,"lng":-85.6436,"platform":"ebay"},{"zip":"67110","city":"Mulvane","state":"KS","country":"United States","count":2,"lat":37.4554,"lng":-97.2283,"platform":"ebay"},{"zip":"65202","city":"Columbia","state":"MO","country":"United States","count":1,"lat":39.0406,"lng":-92.263,"platform":"ebay"},{"zip":"30134","city":"Douglasville","state":"GA","country":"United States","count":1,"lat":33.7809,"lng":-84.7769,"platform":"ebay"},{"zip":"17257","city":"Shippensburg","state":"PA","country":"United States","count":1,"lat":40.0406,"lng":-77.4975,"platform":"ebay"},{"zip":"82609","city":"Casper","state":"WY","country":"United States","count":1,"lat":42.8431,"lng":-106.2764,"platform":"ebay"},{"zip":"70433","city":"Covington","state":"LA","country":"United States","count":2,"lat":30.4545,"lng":-90.1443,"platform":"ebay"},{"zip":"92127","city":"San Diego","state":"CA","country":"United States","count":1,"lat":33.0232,"lng":-117.1242,"platform":"ebay"},{"zip":"60526","city":"La Grange Park","state":"IL","country":"United States","count":1,"lat":41.8334,"lng":-87.8713,"platform":"ebay"},{"zip":"94611","city":"Oakland","state":"CA","country":"United States","count":1,"lat":37.8361,"lng":-122.2193,"platform":"ebay"},{"zip":"20626","city":"Coltons Point","state":"MD","country":"United States","count":1,"lat":38.2167,"lng":-76.7985,"platform":"ebay"},{"zip":"98310","city":"Bremerton","state":"WA","country":"United States","count":1,"lat":47.5943,"lng":-122.6265,"platform":"ebay"},{"zip":"98363","city":"Port Angeles","state":"WA","country":"United States","count":1,"lat":48.0173,"lng":-123.8246,"platform":"ebay"},{"zip":"85053","city":"Phoenix","state":"AZ","country":"United States","count":1,"lat":33.6327,"lng":-112.1329,"platform":"ebay"},{"zip":"28806","city":"Asheville","state":"NC","country":"United States","count":1,"lat":35.5716,"lng":-82.6216,"platform":"ebay"},{"zip":"94568","city":"Dublin","state":"CA","country":"United States","count":1,"lat":37.7163,"lng":-121.9124,"platform":"ebay"},{"zip":"43055","city":"Newark","state":"OH","country":"United States","count":1,"lat":40.1216,"lng":-82.3822,"platform":"ebay"},{"zip":"32571","city":"Milton","state":"FL","country":"United States","count":1,"lat":30.6645,"lng":-87.1992,"platform":"ebay"},{"zip":"80132","city":"Monument","state":"CO","country":"United States","count":1,"lat":39.0903,"lng":-104.8452,"platform":"ebay"},{"zip":"20852","city":"North Bethesda","state":"MD","country":"United States","count":1,"lat":39.0526,"lng":-77.1232,"platform":"ebay"},{"zip":"92040","city":"Lakeside","state":"CA","country":"United States","count":1,"lat":32.903,"lng":-116.8655,"platform":"ebay"},{"zip":"83338","city":"Jerome","state":"ID","country":"United States","count":1,"lat":42.7205,"lng":-114.3128,"platform":"ebay"},{"zip":"34653","city":"New Port Richey","state":"FL","country":"United States","count":1,"lat":28.2451,"lng":-82.6927,"platform":"ebay"},{"zip":"85119","city":"Apache Junction","state":"AZ","country":"United States","count":1,"lat":33.4198,"lng":-111.5149,"platform":"ebay"},{"zip":"78253","city":"San Antonio","state":"TX","country":"United States","count":1,"lat":29.472,"lng":-98.797,"platform":"ebay"},{"zip":"32776","city":"Sorrento","state":"FL","country":"United States","count":1,"lat":28.8252,"lng":-81.4863,"platform":"ebay"},{"zip":"65348","city":"Otterville","state":"MO","country":"United States","count":1,"lat":38.7078,"lng":-92.9572,"platform":"ebay"},{"zip":"27502","city":"Apex","state":"NC","country":"United States","count":1,"lat":35.7115,"lng":-78.9187,"platform":"ebay"},{"zip":"19428","city":"Conshohocken","state":"PA","country":"United States","count":1,"lat":40.0798,"lng":-75.3076,"platform":"ebay"},{"zip":"33543","city":"Wesley Chapel","state":"FL","country":"United States","count":1,"lat":28.2052,"lng":-82.3199,"platform":"ebay"},{"zip":"66109","city":"Kansas City","state":"KS","country":"United States","count":2,"lat":39.1713,"lng":-94.8211,"platform":"ebay"},{"zip":"46074","city":"Carmel","state":"IN","country":"United States","count":1,"lat":40.0373,"lng":-86.1659,"platform":"ebay"},{"zip":"93640","city":"Mendota","state":"CA","country":"United States","count":1,"lat":36.6142,"lng":-120.6067,"platform":"ebay"},{"zip":"65721","city":"Ozark","state":"MO","country":"United States","count":1,"lat":36.9691,"lng":-93.2097,"platform":"ebay"},{"zip":"92585","city":"Menifee","state":"CA","country":"United States","count":1,"lat":33.7389,"lng":-117.1821,"platform":"ebay"},{"zip":"35115","city":"Montevallo","state":"AL","country":"United States","count":1,"lat":33.1094,"lng":-86.894,"platform":"ebay"},{"zip":"93458","city":"Santa Maria","state":"CA","country":"United States","count":1,"lat":34.9556,"lng":-120.4994,"platform":"ebay"},{"zip":"33813","city":"Lakeland","state":"FL","country":"United States","count":1,"lat":27.946,"lng":-81.9209,"platform":"ebay"},{"zip":"20019","city":"Washington","state":"DC","country":"United States","count":1,"lat":38.8928,"lng":-76.9405,"platform":"ebay"},{"zip":"27587","city":"Wake Forest","state":"NC","country":"United States","count":1,"lat":35.9813,"lng":-78.5502,"platform":"ebay"},{"zip":"47203","city":"Columbus","state":"IN","country":"United States","count":1,"lat":39.2312,"lng":-85.8351,"platform":"ebay"},{"zip":"75454","city":"Melissa","state":"TX","country":"United States","count":1,"lat":33.2841,"lng":-96.5497,"platform":"ebay"},{"zip":"94806","city":"San Pablo","state":"CA","country":"United States","count":1,"lat":37.98,"lng":-122.3331,"platform":"ebay"},{"zip":"90623","city":"La Palma","state":"CA","country":"United States","count":1,"lat":33.8508,"lng":-118.0435,"platform":"ebay"},{"zip":"19809","city":"Wilmington","state":"DE","country":"United States","count":1,"lat":39.7662,"lng":-75.488,"platform":"ebay"},{"zip":"37830","city":"Oak Ridge","state":"TN","country":"United States","count":1,"lat":35.9699,"lng":-84.2864,"platform":"ebay"},{"zip":"14150","city":"Tonawanda","state":"NY","country":"United States","count":1,"lat":42.9951,"lng":-78.8818,"platform":"ebay"},{"zip":"48331","city":"Farmington Hills","state":"MI","country":"United States","count":1,"lat":42.5054,"lng":-83.4075,"platform":"ebay"},{"zip":"28462","city":"Supply","state":"NC","country":"United States","count":1,"lat":34.0587,"lng":-78.3217,"platform":"ebay"},{"zip":"55021","city":"Faribault","state":"MN","country":"United States","count":1,"lat":44.3128,"lng":-93.2927,"platform":"ebay"},{"zip":"92707","city":"Santa Ana","state":"CA","country":"United States","count":1,"lat":33.6966,"lng":-117.871,"platform":"ebay"},{"zip":"78374","city":"Portland","state":"TX","country":"United States","count":1,"lat":27.9371,"lng":-97.3056,"platform":"ebay"},{"zip":"56055","city":"Lake Crystal","state":"MN","country":"United States","count":1,"lat":44.1337,"lng":-94.2409,"platform":"ebay"},{"zip":"10472","city":"Bronx","state":"NY","country":"United States","count":1,"lat":40.83,"lng":-73.866,"platform":"ebay"},{"zip":"27203","city":"Asheboro","state":"NC","country":"United States","count":1,"lat":35.737,"lng":-79.7704,"platform":"ebay"},{"zip":"91402","city":"Panorama City","state":"CA","country":"United States","count":1,"lat":34.2288,"lng":-118.4444,"platform":"ebay"},{"zip":"99709","city":"Fairbanks","state":"AK","country":"United States","count":1,"lat":64.9257,"lng":-148.1553,"platform":"ebay"},{"zip":"61016","city":"Cherry Valley","state":"IL","country":"United States","count":1,"lat":42.2026,"lng":-88.9621,"platform":"ebay"},{"zip":"06451","city":"Meriden","state":"CT","country":"United States","count":1,"lat":41.5384,"lng":-72.8188,"platform":"ebay"},{"zip":"30004","city":"Alpharetta","state":"GA","country":"United States","count":1,"lat":34.1286,"lng":-84.2949,"platform":"ebay"},{"zip":"32730","city":"Fern Park","state":"FL","country":"United States","count":1,"lat":28.6537,"lng":-81.3431,"platform":"ebay"},{"zip":"33301","city":"Fort Lauderdale","state":"FL","country":"United States","count":1,"lat":26.1211,"lng":-80.1272,"platform":"ebay"},{"zip":"78216","city":"San Antonio","state":"TX","country":"United States","count":1,"lat":29.5354,"lng":-98.4814,"platform":"ebay"},{"zip":"32792","city":"Winter Park","state":"FL","country":"United States","count":1,"lat":28.6087,"lng":-81.2989,"platform":"ebay"},{"zip":"78749","city":"Austin","state":"TX","country":"United States","count":1,"lat":30.2071,"lng":-97.8606,"platform":"ebay"},{"zip":"01520","city":"Holden","state":"MA","country":"United States","count":1,"lat":42.3338,"lng":-71.8533,"platform":"ebay"},{"zip":"19111","city":"Philadelphia","state":"PA","country":"United States","count":1,"lat":40.0633,"lng":-75.0797,"platform":"ebay"},{"zip":"11201","city":"Brooklyn","state":"NY","country":"United States","count":1,"lat":40.6946,"lng":-73.9906,"platform":"ebay"},{"zip":"77578","city":"Manvel","state":"TX","country":"United States","count":1,"lat":29.4747,"lng":-95.3599,"platform":"ebay"},{"zip":"76058","city":"Joshua","state":"TX","country":"United States","count":1,"lat":32.4671,"lng":-97.4092,"platform":"ebay"},{"zip":"79525","city":"Hawley","state":"TX","country":"United States","count":1,"lat":32.6348,"lng":-99.838,"platform":"ebay"},{"zip":"20016","city":"Washington","state":"DC","country":"United States","count":1,"lat":38.9368,"lng":-77.0931,"platform":"ebay"},{"zip":"97123","city":"Hillsboro","state":"OR","country":"United States","count":1,"lat":45.4444,"lng":-122.9889,"platform":"ebay"},{"zip":"33309","city":"Oakland Park","state":"FL","country":"United States","count":1,"lat":26.1883,"lng":-80.1704,"platform":"ebay"},{"zip":"95212","city":"Stockton","state":"CA","country":"United States","count":1,"lat":38.0375,"lng":-121.2235,"platform":"ebay"},{"zip":"14617","city":"Rochester","state":"NY","country":"United States","count":1,"lat":43.2249,"lng":-77.5893,"platform":"ebay"},{"zip":"62650","city":"Jacksonville","state":"IL","country":"United States","count":1,"lat":39.7417,"lng":-90.2439,"platform":"ebay"},{"zip":"53005","city":"Brookfield","state":"WI","country":"United States","count":1,"lat":43.0606,"lng":-88.0966,"platform":"ebay"},{"zip":"53218","city":"Milwaukee","state":"WI","country":"United States","count":3,"lat":43.1155,"lng":-87.994,"platform":"ebay"},{"zip":"78045","city":"Laredo","state":"TX","country":"United States","count":1,"lat":27.6821,"lng":-99.6384,"platform":"ebay"},{"zip":"35023","city":"Bessemer","state":"AL","country":"United States","count":1,"lat":33.4626,"lng":-87.0926,"platform":"ebay"},{"zip":"38501","city":"Cookeville","state":"TN","country":"United States","count":1,"lat":36.2442,"lng":-85.5431,"platform":"ebay"},{"zip":"07043","city":"Montclair","state":"NJ","country":"United States","count":1,"lat":40.8471,"lng":-74.2005,"platform":"ebay"},{"zip":"10918","city":"Chester","state":"NY","country":"United States","count":1,"lat":41.3502,"lng":-74.2578,"platform":"ebay"},{"zip":"95843","city":"Antelope","state":"CA","country":"United States","count":1,"lat":38.7152,"lng":-121.3561,"platform":"ebay"},{"zip":"02919","city":"Johnston","state":"RI","country":"United States","count":1,"lat":41.8279,"lng":-71.5181,"platform":"ebay"},{"zip":"54409","city":"Antigo","state":"WI","country":"United States","count":1,"lat":45.1059,"lng":-89.191,"platform":"ebay"},{"zip":"30349","city":"Atlanta","state":"GA","country":"United States","count":1,"lat":33.6219,"lng":-84.5212,"platform":"ebay"},{"zip":"53125","city":"Fontana","state":"WI","country":"United States","count":1,"lat":42.5432,"lng":-88.5582,"platform":"ebay"},{"zip":"84404","city":"Ogden","state":"UT","country":"United States","count":1,"lat":41.2071,"lng":-112.211,"platform":"ebay"},{"zip":"85035","city":"Phoenix","state":"AZ","country":"United States","count":1,"lat":33.4729,"lng":-112.1948,"platform":"ebay"},{"zip":"95060","city":"Santa Cruz","state":"CA","country":"United States","count":1,"lat":37.069,"lng":-122.1569,"platform":"ebay"},{"zip":"96701","city":"Aiea","state":"HI","country":"United States","count":1,"lat":21.3963,"lng":-157.8964,"platform":"ebay"},{"zip":"80130","city":"Highlands Ranch","state":"CO","country":"United States","count":1,"lat":39.54,"lng":-104.9235,"platform":"ebay"},{"zip":"94544","city":"Hayward","state":"CA","country":"United States","count":1,"lat":37.6368,"lng":-122.0494,"platform":"ebay"},{"zip":"52358","city":"West Branch","state":"IA","country":"United States","count":1,"lat":41.687,"lng":-91.3007,"platform":"ebay"},{"zip":"59718","city":"Bozeman","state":"MT","country":"United States","count":1,"lat":45.658,"lng":-111.2035,"platform":"ebay"},{"zip":"44646","city":"Massillon","state":"OH","country":"United States","count":1,"lat":40.8183,"lng":-81.493,"platform":"ebay"},{"zip":"37149","city":"Readyville","state":"TN","country":"United States","count":1,"lat":35.793,"lng":-86.2026,"platform":"ebay"},{"zip":"20152","city":"Chantilly","state":"VA","country":"United States","count":1,"lat":38.8922,"lng":-77.5098,"platform":"ebay"},{"zip":"99603","city":"Homer","state":"AK","country":"United States","count":2,"lat":59.5718,"lng":-151.1856,"platform":"ebay"},{"zip":"84093","city":"Sandy","state":"UT","country":"United States","count":1,"lat":40.597,"lng":-111.8262,"platform":"ebay"},{"zip":"75173","city":"Nevada","state":"TX","country":"United States","count":1,"lat":33.0419,"lng":-96.3935,"platform":"ebay"},{"zip":"14009","city":"Arcade","state":"NY","country":"United States","count":1,"lat":42.5783,"lng":-78.3777,"platform":"ebay"},{"zip":"19810","city":"Wilmington","state":"DE","country":"United States","count":1,"lat":39.8151,"lng":-75.5048,"platform":"ebay"},{"zip":"76513","city":"Belton","state":"TX","country":"United States","count":1,"lat":31.0449,"lng":-97.5059,"platform":"ebay"},{"zip":"98043","city":"Mountlake Terrace","state":"WA","country":"United States","count":1,"lat":47.7922,"lng":-122.3072,"platform":"ebay"},{"zip":"07621","city":"Bergenfield","state":"NJ","country":"United States","count":1,"lat":40.9231,"lng":-73.9986,"platform":"ebay"},{"zip":"90042","city":"Los Angeles","state":"CA","country":"United States","count":1,"lat":34.1133,"lng":-118.1915,"platform":"ebay"},{"zip":"83401","city":"Ammon","state":"ID","country":"United States","count":1,"lat":43.5289,"lng":-111.8664,"platform":"ebay"},{"zip":"56001","city":"Mankato","state":"MN","country":"United States","count":1,"lat":44.1307,"lng":-93.9938,"platform":"ebay"},{"zip":"48746","city":"Millington","state":"MI","country":"United States","count":1,"lat":43.2793,"lng":-83.554,"platform":"ebay"},{"zip":"11722","city":"Central Islip","state":"NY","country":"United States","count":1,"lat":40.7807,"lng":-73.1985,"platform":"ebay"},{"zip":"16365","city":"Warren","state":"PA","country":"United States","count":1,"lat":41.848,"lng":-79.1004,"platform":"ebay"},{"zip":"91730","city":"Rancho Cucamonga","state":"CA","country":"United States","count":1,"lat":34.0994,"lng":-117.5763,"platform":"ebay"},{"zip":"89081","city":"North Las Vegas","state":"NV","country":"United States","count":1,"lat":36.2582,"lng":-115.1028,"platform":"ebay"},{"zip":"23456","city":"Virginia Beach","state":"VA","country":"United States","count":2,"lat":36.6748,"lng":-76.0115,"platform":"ebay"},{"zip":"01453","city":"Leominster","state":"MA","country":"United States","count":1,"lat":42.5245,"lng":-71.7722,"platform":"ebay"},{"zip":"29303","city":"Spartanburg","state":"SC","country":"United States","count":1,"lat":34.995,"lng":-81.9822,"platform":"ebay"},{"zip":"12603","city":"Poughkeepsie","state":"NY","country":"United States","count":1,"lat":41.6755,"lng":-73.8601,"platform":"ebay"},{"zip":"93726","city":"Fresno","state":"CA","country":"United States","count":1,"lat":36.794,"lng":-119.759,"platform":"ebay"},{"zip":"20895","city":"Kensington","state":"MD","country":"United States","count":1,"lat":39.0267,"lng":-77.081,"platform":"ebay"},{"zip":"13440","city":"Rome","state":"NY","country":"United States","count":1,"lat":43.2134,"lng":-75.4742,"platform":"ebay"},{"zip":"75048","city":"Sachse","state":"TX","country":"United States","count":2,"lat":32.9682,"lng":-96.582,"platform":"ebay"},{"zip":"34972","city":"Okeechobee","state":"FL","country":"United States","count":1,"lat":27.4278,"lng":-80.897,"platform":"ebay"},{"zip":"49686","city":"Traverse City","state":"MI","country":"United States","count":1,"lat":44.8096,"lng":-85.4838,"platform":"ebay"},{"zip":"49240","city":"Grass Lake","state":"MI","country":"United States","count":1,"lat":42.2899,"lng":-84.1914,"platform":"ebay"},{"zip":"90045","city":"Los Angeles","state":"CA","country":"United States","count":1,"lat":33.9551,"lng":-118.402,"platform":"ebay"},{"zip":"97503","city":"White City","state":"OR","country":"United States","count":1,"lat":42.544,"lng":-122.9006,"platform":"ebay"},{"zip":"60660","city":"Chicago","state":"IL","country":"United States","count":1,"lat":41.9908,"lng":-87.665,"platform":"ebay"},{"zip":"64089","city":"Smithville","state":"MO","country":"United States","count":1,"lat":39.394,"lng":-94.5734,"platform":"ebay"},{"zip":"92651","city":"Laguna Beach","state":"CA","country":"United States","count":1,"lat":33.5451,"lng":-117.7761,"platform":"ebay"},{"zip":"11935","city":"Cutchogue","state":"NY","country":"United States","count":1,"lat":41.0003,"lng":-72.4831,"platform":"ebay"},{"zip":"15143","city":"Sewickley","state":"PA","country":"United States","count":1,"lat":40.5772,"lng":-80.1484,"platform":"ebay"},{"zip":"19701","city":"Bear","state":"DE","country":"United States","count":1,"lat":39.5983,"lng":-75.7061,"platform":"ebay"},{"zip":"38852","city":"Iuka","state":"MS","country":"United States","count":1,"lat":34.8256,"lng":-88.2231,"platform":"ebay"},{"zip":"95682","city":"Cameron Park","state":"CA","country":"United States","count":1,"lat":38.6164,"lng":-120.9732,"platform":"ebay"},{"zip":"19060","city":"Garnet Valley","state":"PA","country":"United States","count":1,"lat":39.8404,"lng":-75.4665,"platform":"ebay"},{"zip":"55603","city":"Finland","state":"MN","country":"United States","count":1,"lat":47.6305,"lng":-91.1878,"platform":"ebay"},{"zip":"14217","city":"Tonawanda","state":"NY","country":"United States","count":1,"lat":42.9753,"lng":-78.8812,"platform":"ebay"},{"zip":"68643","city":"Leigh","state":"NE","country":"United States","count":1,"lat":41.6489,"lng":-97.2432,"platform":"ebay"},{"zip":"44055","city":"Lorain","state":"OH","country":"United States","count":2,"lat":41.4348,"lng":-82.1348,"platform":"ebay"},{"zip":"60467","city":"Orland Park","state":"IL","country":"United States","count":1,"lat":41.603,"lng":-87.8894,"platform":"ebay"},{"zip":"06824","city":"Fairfield","state":"CT","country":"United States","count":1,"lat":41.1745,"lng":-73.2843,"platform":"ebay"},{"zip":"93274","city":"Tulare","state":"CA","country":"United States","count":1,"lat":36.1728,"lng":-119.363,"platform":"ebay"},{"zip":"19454","city":"North Wales","state":"PA","country":"United States","count":1,"lat":40.2203,"lng":-75.2413,"platform":"ebay"},{"zip":"68135","city":"Omaha","state":"NE","country":"United States","count":1,"lat":41.2057,"lng":-96.1944,"platform":"ebay"},{"zip":"30633","city":"Danielsville","state":"GA","country":"United States","count":1,"lat":34.1649,"lng":-83.2596,"platform":"ebay"},{"zip":"31326","city":"Rincon","state":"GA","country":"United States","count":1,"lat":32.2924,"lng":-81.2179,"platform":"ebay"},{"zip":"91702","city":"Azusa","state":"CA","country":"United States","count":2,"lat":34.1381,"lng":-117.9122,"platform":"ebay"},{"zip":"34637","city":"Land O Lakes","state":"FL","country":"United States","count":1,"lat":28.2836,"lng":-82.4612,"platform":"ebay"},{"zip":"78626","city":"Georgetown","state":"TX","country":"United States","count":1,"lat":30.6618,"lng":-97.5814,"platform":"ebay"},{"zip":"06811","city":"Danbury","state":"CT","country":"United States","count":1,"lat":41.4238,"lng":-73.4792,"platform":"ebay"},{"zip":"47909","city":"Lafayette","state":"IN","country":"United States","count":1,"lat":40.3149,"lng":-86.8862,"platform":"ebay"},{"zip":"78665","city":"Round Rock","state":"TX","country":"United States","count":1,"lat":30.5402,"lng":-97.647,"platform":"ebay"},{"zip":"54914","city":"Appleton","state":"WI","country":"United States","count":2,"lat":44.264,"lng":-88.4901,"platform":"ebay"},{"zip":"98374","city":"Puyallup","state":"WA","country":"United States","count":1,"lat":47.1266,"lng":-122.2525,"platform":"ebay"},{"zip":"18360","city":"Stroudsburg","state":"PA","country":"United States","count":2,"lat":40.9587,"lng":-75.2992,"platform":"ebay"},{"zip":"02350","city":"Monponsett","state":"MA","country":"United States","count":1,"lat":42.017,"lng":-70.8499,"platform":"ebay"},{"zip":"37013","city":"Antioch","state":"TN","country":"United States","count":1,"lat":36.0377,"lng":-86.637,"platform":"ebay"},{"zip":"10465","city":"Bronx","state":"NY","country":"United States","count":1,"lat":40.8327,"lng":-73.8163,"platform":"ebay"},{"zip":"60626","city":"Chicago","state":"IL","country":"United States","count":1,"lat":42.0106,"lng":-87.6683,"platform":"ebay"},{"zip":"22180","city":"Vienna","state":"VA","country":"United States","count":1,"lat":38.8974,"lng":-77.2529,"platform":"ebay"},{"zip":"61364","city":"Streator","state":"IL","country":"United States","count":1,"lat":41.1092,"lng":-88.8553,"platform":"ebay"},{"zip":"23669","city":"Hampton","state":"VA","country":"United States","count":1,"lat":37.0506,"lng":-76.3492,"platform":"ebay"},{"zip":"12481","city":"Shokan","state":"NY","country":"United States","count":1,"lat":41.9821,"lng":-74.2148,"platform":"ebay"},{"zip":"53154","city":"Oak Creek","state":"WI","country":"United States","count":1,"lat":42.8863,"lng":-87.8886,"platform":"ebay"},{"zip":"93551","city":"Palmdale","state":"CA","country":"United States","count":2,"lat":34.5798,"lng":-118.2435,"platform":"ebay"},{"zip":"46240","city":"Indianapolis","state":"IN","country":"United States","count":1,"lat":39.9051,"lng":-86.1159,"platform":"ebay"},{"zip":"71110","city":"Barksdale Afb","state":"LA","country":"United States","count":1,"lat":32.5153,"lng":-93.6345,"platform":"ebay"},{"zip":"48858","city":"Mount Pleasant","state":"MI","country":"United States","count":1,"lat":43.6189,"lng":-84.7977,"platform":"ebay"},{"zip":"76131","city":"Fort Worth","state":"TX","country":"United States","count":1,"lat":32.8815,"lng":-97.353,"platform":"ebay"},{"zip":"95070","city":"Saratoga","state":"CA","country":"United States","count":1,"lat":37.2538,"lng":-122.0512,"platform":"ebay"},{"zip":"89801","city":"Elko","state":"NV","country":"United States","count":1,"lat":41.1775,"lng":-115.8925,"platform":"ebay"},{"zip":"85234","city":"Gilbert","state":"AZ","country":"United States","count":1,"lat":33.3646,"lng":-111.7473,"platform":"ebay"},{"zip":"71801","city":"Hope","state":"AR","country":"United States","count":1,"lat":33.6596,"lng":-93.5991,"platform":"ebay"},{"zip":"94502","city":"Alameda","state":"CA","country":"United States","count":1,"lat":37.7343,"lng":-122.2439,"platform":"ebay"},{"zip":"20735","city":"Clinton","state":"MD","country":"United States","count":1,"lat":38.7394,"lng":-76.9118,"platform":"ebay"},{"zip":"10573","city":"Port Chester","state":"NY","country":"United States","count":1,"lat":41.0232,"lng":-73.6781,"platform":"ebay"},{"zip":"09012","city":"Apo","state":"AE","country":"United States","count":1,"lat":0.0,"lng":0.0,"platform":"ebay"},{"zip":"92395","city":"Victorville","state":"CA","country":"United States","count":1,"lat":34.5178,"lng":-117.299,"platform":"ebay"},{"zip":"92532","city":"Lake Elsinore","state":"CA","country":"United States","count":1,"lat":33.7078,"lng":-117.3128,"platform":"ebay"},{"zip":"57110","city":"Sioux Falls","state":"SD","country":"United States","count":1,"lat":43.5497,"lng":-96.6311,"platform":"ebay"},{"zip":"77011","city":"Houston","state":"TX","country":"United States","count":1,"lat":29.7418,"lng":-95.3094,"platform":"ebay"},{"zip":"82072","city":"Laramie","state":"WY","country":"United States","count":1,"lat":41.4404,"lng":-105.5216,"platform":"ebay"},{"zip":"78537","city":"Donna","state":"TX","country":"United States","count":1,"lat":26.1665,"lng":-98.0812,"platform":"ebay"},{"zip":"32832","city":"Orlando","state":"FL","country":"United States","count":1,"lat":28.4,"lng":-81.1796,"platform":"ebay"},{"zip":"53703","city":"Madison","state":"WI","country":"United States","count":1,"lat":43.0707,"lng":-89.3757,"platform":"ebay"},{"zip":"45245","city":"Cincinnati","state":"OH","country":"United States","count":1,"lat":39.0679,"lng":-84.2805,"platform":"ebay"},{"zip":"04364","city":"Winthrop","state":"ME","country":"United States","count":1,"lat":44.3119,"lng":-69.9625,"platform":"ebay"},{"zip":"17543","city":"Lititz","state":"PA","country":"United States","count":1,"lat":40.1791,"lng":-76.2906,"platform":"ebay"},{"zip":"28209","city":"Charlotte","state":"NC","country":"United States","count":1,"lat":35.1766,"lng":-80.8526,"platform":"ebay"},{"zip":"59432","city":"Dupuyer","state":"MT","country":"United States","count":1,"lat":48.1667,"lng":-112.6366,"platform":"ebay"},{"zip":"90504","city":"Torrance","state":"CA","country":"United States","count":1,"lat":33.8726,"lng":-118.3313,"platform":"ebay"},{"zip":"33617","city":"Tampa","state":"FL","country":"United States","count":1,"lat":28.0432,"lng":-82.3902,"platform":"ebay"},{"zip":"83815","city":"Coeur D Alene","state":"ID","country":"United States","count":1,"lat":47.7255,"lng":-116.7899,"platform":"ebay"},{"zip":"95632","city":"Galt","state":"CA","country":"United States","count":1,"lat":38.2734,"lng":-121.2244,"platform":"ebay"},{"zip":"85225","city":"Chandler","state":"AZ","country":"United States","count":1,"lat":33.326,"lng":-111.8244,"platform":"ebay"},{"zip":"85711","city":"Tucson","state":"AZ","country":"United States","count":1,"lat":32.2142,"lng":-110.8838,"platform":"ebay"},{"zip":"05495","city":"Williston","state":"VT","country":"United States","count":1,"lat":44.4244,"lng":-73.0871,"platform":"ebay"},{"zip":"94588","city":"Pleasanton","state":"CA","country":"United States","count":1,"lat":37.6902,"lng":-121.9022,"platform":"ebay"},{"zip":"31904","city":"Columbus","state":"GA","country":"United States","count":1,"lat":32.544,"lng":-85.0139,"platform":"ebay"},{"zip":"20853","city":"Rockville","state":"MD","country":"United States","count":1,"lat":39.1072,"lng":-77.0989,"platform":"ebay"},{"zip":"07753","city":"Tinton Falls","state":"NJ","country":"United States","count":1,"lat":40.2169,"lng":-74.0742,"platform":"ebay"},{"zip":"22714","city":"Brandy Station","state":"VA","country":"United States","count":1,"lat":38.5199,"lng":-77.8839,"platform":"ebay"},{"zip":"28681","city":"Taylorsville","state":"NC","country":"United States","count":1,"lat":35.9165,"lng":-81.2001,"platform":"ebay"},{"zip":"68046","city":"Papillion","state":"NE","country":"United States","count":1,"lat":41.1176,"lng":-96.0685,"platform":"ebay"},{"zip":"22305","city":"Alexandria","state":"VA","country":"United States","count":1,"lat":38.8363,"lng":-77.065,"platform":"ebay"},{"zip":"10314","city":"Staten Island","state":"NY","country":"United States","count":2,"lat":40.5961,"lng":-74.1616,"platform":"ebay"},{"zip":"10462","city":"Bronx","state":"NY","country":"United States","count":1,"lat":40.8427,"lng":-73.8555,"platform":"ebay"},{"zip":"03237","city":"Gilmanton","state":"NH","country":"United States","count":1,"lat":43.4318,"lng":-71.3947,"platform":"ebay"},{"zip":"70125","city":"New Orleans","state":"LA","country":"United States","count":1,"lat":29.9535,"lng":-90.103,"platform":"ebay"},{"zip":"04047","city":"Parsonsfield","state":"ME","country":"United States","count":1,"lat":43.742,"lng":-70.9136,"platform":"ebay"},{"zip":"84105","city":"Salt Lake City","state":"UT","country":"United States","count":1,"lat":40.7387,"lng":-111.8592,"platform":"ebay"},{"zip":"92024","city":"Encinitas","state":"CA","country":"United States","count":1,"lat":33.0545,"lng":-117.2498,"platform":"ebay"},{"zip":"34613","city":"Weeki Wachee","state":"FL","country":"United States","count":1,"lat":28.5555,"lng":-82.5245,"platform":"ebay"},{"zip":"93646","city":"Orange Cove","state":"CA","country":"United States","count":1,"lat":36.6355,"lng":-119.2658,"platform":"ebay"},{"zip":"16652","city":"Huntingdon","state":"PA","country":"United States","count":1,"lat":40.5628,"lng":-77.9119,"platform":"ebay"},{"zip":"62254","city":"Lebanon","state":"IL","country":"United States","count":1,"lat":38.6124,"lng":-89.8289,"platform":"ebay"},{"zip":"77510","city":"Santa Fe","state":"TX","country":"United States","count":1,"lat":29.3337,"lng":-95.1116,"platform":"ebay"},{"zip":"19952","city":"Harrington","state":"DE","country":"United States","count":1,"lat":38.911,"lng":-75.6066,"platform":"ebay"},{"zip":"37379","city":"Soddy Daisy","state":"TN","country":"United States","count":1,"lat":35.3001,"lng":-85.1796,"platform":"ebay"},{"zip":"07311","city":"Jersey City","state":"NJ","country":"United States","count":2,"lat":40.7246,"lng":-74.0599,"platform":"ebay"},{"zip":"08205","city":"Galloway","state":"NJ","country":"United States","count":1,"lat":39.486,"lng":-74.4537,"platform":"ebay"},{"zip":"93454","city":"Santa Maria","state":"CA","country":"United States","count":1,"lat":34.9287,"lng":-120.2276,"platform":"ebay"},{"zip":"02675","city":"Yarmouth Port","state":"MA","country":"United States","count":1,"lat":41.7076,"lng":-70.23,"platform":"ebay"},{"zip":"30097","city":"Johns Creek","state":"GA","country":"United States","count":1,"lat":34.0286,"lng":-84.1468,"platform":"ebay"},{"zip":"18014","city":"Bath","state":"PA","country":"United States","count":1,"lat":40.7595,"lng":-75.4184,"platform":"ebay"},{"zip":"28052","city":"Gastonia","state":"NC","country":"United States","count":1,"lat":35.2298,"lng":-81.2429,"platform":"ebay"},{"zip":"79830","city":"Alpine","state":"TX","country":"United States","count":1,"lat":29.9112,"lng":-103.4604,"platform":"ebay"},{"zip":"93550","city":"Palmdale","state":"CA","country":"United States","count":1,"lat":34.4836,"lng":-118.0604,"platform":"ebay"},{"zip":"85383","city":"Peoria","state":"AZ","country":"United States","count":1,"lat":33.7647,"lng":-112.2771,"platform":"ebay"},{"zip":"37614","city":"Johnson City","state":"TN","country":"United States","count":1,"lat":36.303,"lng":-82.3673,"platform":"ebay"},{"zip":"06460","city":"Milford","state":"CT","country":"United States","count":1,"lat":41.211,"lng":-73.0519,"platform":"ebay"},{"zip":"84401","city":"West Haven","state":"UT","country":"United States","count":1,"lat":41.2491,"lng":-111.9737,"platform":"ebay"},{"zip":"45014","city":"Fairfield","state":"OH","country":"United States","count":1,"lat":39.3341,"lng":-84.5653,"platform":"ebay"},{"zip":"06418","city":"Derby","state":"CT","country":"United States","count":1,"lat":41.3269,"lng":-73.0819,"platform":"ebay"},{"zip":"48098","city":"Troy","state":"MI","country":"United States","count":1,"lat":42.5992,"lng":-83.1788,"platform":"ebay"},{"zip":"85042","city":"Phoenix","state":"AZ","country":"United States","count":1,"lat":33.37,"lng":-112.0353,"platform":"ebay"},{"zip":"90275","city":"Rancho Palos Verdes","state":"CA","country":"United States","count":1,"lat":33.7589,"lng":-118.3599,"platform":"ebay"},{"zip":"32566","city":"Navarre","state":"FL","country":"United States","count":1,"lat":30.4273,"lng":-86.8854,"platform":"ebay"},{"zip":"43026","city":"Hilliard","state":"OH","country":"United States","count":1,"lat":40.0217,"lng":-83.1701,"platform":"ebay"},{"zip":"33418","city":"Palm Beach Gardens","state":"FL","country":"United States","count":1,"lat":26.8542,"lng":-80.1901,"platform":"ebay"},{"zip":"45106","city":"Bethel","state":"OH","country":"United States","count":1,"lat":38.9315,"lng":-84.028,"platform":"ebay"},{"zip":"34219","city":"Parrish","state":"FL","country":"United States","count":1,"lat":27.5588,"lng":-82.3272,"platform":"ebay"},{"zip":"43147","city":"Pickerington","state":"OH","country":"United States","count":1,"lat":39.8999,"lng":-82.7467,"platform":"ebay"},{"zip":"20176","city":"Leesburg","state":"VA","country":"United States","count":1,"lat":39.16,"lng":-77.5219,"platform":"ebay"},{"zip":"64141","city":"Kansas City","state":"MO","country":"United States","count":1,"lat":39.0997,"lng":-94.5784,"platform":"ebay"},{"zip":"92308","city":"Apple Valley","state":"CA","country":"United States","count":1,"lat":34.4236,"lng":-117.1455,"platform":"ebay"},{"zip":"15223","city":"Pittsburgh","state":"PA","country":"United States","count":1,"lat":40.5066,"lng":-79.9537,"platform":"ebay"},{"zip":"85260","city":"Scottsdale","state":"AZ","country":"United States","count":1,"lat":33.611,"lng":-111.8901,"platform":"ebay"},{"zip":"78613","city":"Cedar Park","state":"TX","country":"United States","count":1,"lat":30.498,"lng":-97.8157,"platform":"ebay"},{"zip":"98406","city":"Tacoma","state":"WA","country":"United States","count":1,"lat":47.2611,"lng":-122.5105,"platform":"ebay"},{"zip":"93215","city":"Delano","state":"CA","country":"United States","count":1,"lat":35.7226,"lng":-119.1521,"platform":"ebay"},{"zip":"78040","city":"Laredo","state":"TX","country":"United States","count":1,"lat":27.5085,"lng":-99.5036,"platform":"ebay"},{"zip":"63139","city":"Saint Louis","state":"MO","country":"United States","count":1,"lat":38.6136,"lng":-90.2919,"platform":"ebay"},{"zip":"94089","city":"Sunnyvale","state":"CA","country":"United States","count":1,"lat":37.4252,"lng":-122.0172,"platform":"ebay"},{"zip":"33180","city":"Aventura","state":"FL","country":"United States","count":1,"lat":25.9597,"lng":-80.142,"platform":"ebay"},{"zip":"44089","city":"Vermilion","state":"OH","country":"United States","count":1,"lat":41.3886,"lng":-82.3718,"platform":"ebay"},{"zip":"84084","city":"West Jordan","state":"UT","country":"United States","count":1,"lat":40.6251,"lng":-111.9663,"platform":"ebay"},{"zip":"34249","city":"Sarasota","state":"FL","country":"United States","count":2,"lat":0.0,"lng":0.0,"platform":"ebay"},{"zip":"32432","city":"Cypress","state":"FL","country":"United States","count":1,"lat":30.7158,"lng":-85.0764,"platform":"ebay"},{"zip":"23603","city":"Newport News","state":"VA","country":"United States","count":1,"lat":37.1921,"lng":-76.5676,"platform":"ebay"},{"zip":"89103","city":"Las Vegas","state":"NV","country":"United States","count":1,"lat":36.1116,"lng":-115.2119,"platform":"ebay"},{"zip":"30075","city":"Roswell","state":"GA","country":"United States","count":1,"lat":34.0561,"lng":-84.3795,"platform":"ebay"},{"zip":"40204","city":"Louisville","state":"KY","country":"United States","count":1,"lat":38.2385,"lng":-85.7202,"platform":"ebay"},{"zip":"42071","city":"Murray","state":"KY","country":"United States","count":2,"lat":36.6395,"lng":-88.2775,"platform":"ebay"},{"zip":"97253","city":"Portland","state":"OR","country":"United States","count":1,"lat":45.5239,"lng":-122.6751,"platform":"ebay"},{"zip":"84123","city":"Taylorsville","state":"UT","country":"United States","count":1,"lat":40.6587,"lng":-111.92,"platform":"ebay"},{"zip":"19971","city":"Rehoboth Bch","state":"DE","country":"United States","count":1,"lat":38.6842,"lng":-75.1078,"platform":"ebay"},{"zip":"29909","city":"Bluffton","state":"SC","country":"United States","count":1,"lat":32.3277,"lng":-80.8933,"platform":"ebay"},{"zip":"07945","city":"Mendham","state":"NJ","country":"United States","count":1,"lat":40.787,"lng":-74.5939,"platform":"ebay"},{"zip":"97402","city":"Eugene","state":"OR","country":"United States","count":1,"lat":44.0281,"lng":-123.2485,"platform":"ebay"},{"zip":"48185","city":"Westland","state":"MI","country":"United States","count":1,"lat":42.3321,"lng":-83.3713,"platform":"ebay"},{"zip":"76050","city":"Grandview","state":"TX","country":"United States","count":1,"lat":32.2921,"lng":-97.1891,"platform":"ebay"},{"zip":"60123","city":"Elgin","state":"IL","country":"United States","count":1,"lat":42.035,"lng":-88.312,"platform":"ebay"},{"zip":"20037","city":"Washington","state":"DC","country":"United States","count":1,"lat":38.8987,"lng":-77.054,"platform":"ebay"},{"zip":"11222","city":"Brooklyn","state":"NY","country":"United States","count":1,"lat":40.7283,"lng":-73.9448,"platform":"ebay"},{"zip":"84403","city":"Ogden","state":"UT","country":"United States","count":1,"lat":41.1763,"lng":-111.913,"platform":"ebay"},{"zip":"27520","city":"Clayton","state":"NC","country":"United States","count":1,"lat":35.6146,"lng":-78.4579,"platform":"ebay"},{"zip":"10302","city":"Staten Island","state":"NY","country":"United States","count":1,"lat":40.6293,"lng":-74.1379,"platform":"ebay"},{"zip":"85743","city":"Tucson","state":"AZ","country":"United States","count":1,"lat":32.3003,"lng":-111.165,"platform":"ebay"},{"zip":"18072","city":"Pen Argyl","state":"PA","country":"United States","count":1,"lat":40.8472,"lng":-75.2558,"platform":"ebay"},{"zip":"27408","city":"Greensboro","state":"NC","country":"United States","count":1,"lat":36.1024,"lng":-79.8154,"platform":"ebay"},{"zip":"25411","city":"Berkeley Springs","state":"WV","country":"United States","count":1,"lat":39.5436,"lng":-78.2091,"platform":"ebay"},{"zip":"01201","city":"Pittsfield","state":"MA","country":"United States","count":1,"lat":42.4665,"lng":-73.2894,"platform":"ebay"},{"zip":"97301","city":"Salem","state":"OR","country":"United States","count":1,"lat":44.9586,"lng":-123.0026,"platform":"ebay"},{"zip":"91107","city":"Pasadena","state":"CA","country":"United States","count":1,"lat":34.162,"lng":-118.0894,"platform":"ebay"},{"zip":"60647","city":"Chicago","state":"IL","country":"United States","count":1,"lat":41.9211,"lng":-87.7024,"platform":"ebay"},{"zip":"95630","city":"Folsom","state":"CA","country":"United States","count":1,"lat":38.6645,"lng":-121.145,"platform":"ebay"},{"zip":"27292","city":"Lexington","state":"NC","country":"United States","count":1,"lat":35.7323,"lng":-80.1916,"platform":"ebay"},{"zip":"91945","city":"Lemon Grove","state":"CA","country":"United States","count":2,"lat":32.7343,"lng":-117.0364,"platform":"ebay"},{"zip":"76114","city":"River Oaks","state":"TX","country":"United States","count":1,"lat":32.7778,"lng":-97.3987,"platform":"ebay"},{"zip":"47265","city":"North Vernon","state":"IN","country":"United States","count":1,"lat":39.015,"lng":-85.6145,"platform":"ebay"},{"zip":"94065","city":"Redwood City","state":"CA","country":"United States","count":1,"lat":37.5348,"lng":-122.2471,"platform":"ebay"},{"zip":"32780","city":"Titusville","state":"FL","country":"United States","count":1,"lat":28.5473,"lng":-80.8539,"platform":"ebay"},{"zip":"33782","city":"Pinellas Park","state":"FL","country":"United States","count":1,"lat":27.8635,"lng":-82.71,"platform":"ebay"},{"zip":"48444","city":"Imlay City","state":"MI","country":"United States","count":1,"lat":43.0643,"lng":-83.049,"platform":"ebay"},{"zip":"22046","city":"Falls Church","state":"VA","country":"United States","count":1,"lat":38.8883,"lng":-77.181,"platform":"ebay"},{"zip":"92620","city":"Irvine","state":"CA","country":"United States","count":1,"lat":33.709,"lng":-117.759,"platform":"ebay"},{"zip":"17872","city":"Shamokin","state":"PA","country":"United States","count":1,"lat":40.7629,"lng":-76.4963,"platform":"ebay"},{"zip":"67207","city":"Wichita","state":"KS","country":"United States","count":1,"lat":37.667,"lng":-97.2267,"platform":"ebay"},{"zip":"11101","city":"Long Island City","state":"NY","country":"United States","count":1,"lat":40.7456,"lng":-73.936,"platform":"ebay"},{"zip":"22015","city":"Burke","state":"VA","country":"United States","count":1,"lat":38.7853,"lng":-77.2861,"platform":"ebay"},{"zip":"92126","city":"San Diego","state":"CA","country":"United States","count":1,"lat":32.911,"lng":-117.1448,"platform":"ebay"},{"zip":"98445","city":"Tacoma","state":"WA","country":"United States","count":1,"lat":47.1319,"lng":-122.4119,"platform":"ebay"}]